{
  "code": 0,
  "mes": "武汉市党支部相关信息",
  "count": 260,
  "data": [
    {
      "id": 1,
      "name": "百步亭花园社区龙华庭党支部",
      "longitude": 114.322529,
      "latitude": 30.658015,
      "address": "武汉市江岸区百步亭花园路181号"
    },
    {
      "id": 2,
      "name": "百步亭花园社区康和党支部",
      "longitude": 114.319038,
      "latitude": 30.648126,
      "address": "怡康路39"
    },
    {
      "id": 3,
      "name": "中共中国工商银行股份有限公司武汉江岸支行委员会",
      "longitude": 114.301115,
      "latitude": 30.59126,
      "address": "武汉市江岸区北京路与中山大道交叉路口南侧"
    },
    {
      "id": 4,
      "name": "车站街长安社区党支部委员会(公安街)",
      "longitude": 114.306003,
      "latitude": 30.599693,
      "address": "如寿里18号2层"
    },
    {
      "id": 5,
      "name": "中共球场街社区卫生服务中心党支部",
      "longitude": 114.300581,
      "latitude": 30.599607,
      "address": "武汉市江岸区解放南路与球场街交叉路口东侧"
    },
    {
      "id": 6,
      "name": "中国共产党武汉民生耳鼻喉专科医院支部委员会",
      "longitude": 114.292217,
      "latitude": 30.629138,
      "address": "武汉市江岸区黄孝河路与发展大道交叉路口西南侧(武汉民生耳鼻喉专科医院)"
    },
    {
      "id": 7,
      "name": "中共武汉市江岸区快乐天使幼儿园联合党支部",
      "longitude": 114.326103,
      "latitude": 30.660106,
      "address": "湖北省武汉市江岸区安居路150号附近"
    },
    {
      "id": 8,
      "name": "百步亭花园社区文卉苑党支部",
      "longitude": 114.325881,
      "latitude": 30.664018,
      "address": "安居路184附5号附近"
    },
    {
      "id": 9,
      "name": "怡东大厦联合党支部委员会",
      "longitude": 114.308946,
      "latitude": 30.594987,
      "address": "湖北省武汉市江岸区洞庭街107"
    },
    {
      "id": 10,
      "name": "中共中交二航局岱家山大桥及两岸接线工程项目经理部党支部",
      "longitude": 114.331139,
      "latitude": 30.677618,
      "address": "湖北省武汉市江岸区汉黄路岱家山公交站西100米"
    },
    {
      "id": 11,
      "name": "悦秀苑党支部",
      "longitude": 114.323642,
      "latitude": 30.665312,
      "address": "幸福街23号附近"
    },
    {
      "id": 12,
      "name": "中共武汉市江岸区一元街道同福社区总支委员会",
      "longitude": 114.304092,
      "latitude": 30.587241,
      "address": "洞庭街37号附近"
    },
    {
      "id": 13,
      "name": "中共武汉天姿美容美发培训学校支部委员会",
      "longitude": 114.34192,
      "latitude": 30.650988,
      "address": "武汉市江岸区丹水池汉堤路菜园街1号"
    },
    {
      "id": 14,
      "name": "中共中交二航局第五工程分公司物流中心党支部",
      "longitude": 114.376524,
      "latitude": 30.682372,
      "address": "谌家矶大道65号"
    },
    {
      "id": 15,
      "name": "百步亭集团工地党支部",
      "longitude": 114.324441,
      "latitude": 30.656211,
      "address": "武汉市江岸区百步亭花园路与后湖南路交叉路口往东南约160米"
    },
    {
      "id": 16,
      "name": "武汉铁塔厂-离退休党支部",
      "longitude": 114.341659,
      "latitude": 30.658996,
      "address": "湖北省武汉市江岸区解放大道东150米"
    },
    {
      "id": 17,
      "name": "中共武汉市江岸区谌家矶街道谌家矶社区总支部委员会",
      "longitude": 114.374335,
      "latitude": 30.691187,
      "address": "武汉市江岸区繁盛街与兴盛路交叉路口往西南约290米"
    },
    {
      "id": 18,
      "name": "中共武汉市江岸区四唯街道太平社区总支委员会",
      "longitude": 114.308009,
      "latitude": 30.606219,
      "address": "湖北省武汉市江岸区麟趾路59号"
    },
    {
      "id": 19,
      "name": "中共江岸区新村街铁北社区支部委员会",
      "longitude": 114.310565,
      "latitude": 30.63776,
      "address": "湖北省武汉市江岸区新江岸四村20号"
    },
    {
      "id": 20,
      "name": "中共武汉市江岸区一元街道天津社区总支委员会",
      "longitude": 114.303278,
      "latitude": 30.591386,
      "address": "武汉市江岸区胜利街与天津路交叉路口北侧"
    },
    {
      "id": 21,
      "name": "中共武汉市江汉区汉兴街工委华苑里社区党支部委员会",
      "longitude": 114.266785,
      "latitude": 30.632821,
      "address": "武汉市江汉区红旗渠路与新华路交叉路口往东北约100米"
    },
    {
      "id": 22,
      "name": "中共武汉天美乳腺病专科医院支部",
      "longitude": 114.276284,
      "latitude": 30.611385,
      "address": "武汉市江汉区新华路363号"
    },
    {
      "id": 23,
      "name": "中共武汉市江汉区委汉兴街工委新松里社区总支委员会",
      "longitude": 114.266972,
      "latitude": 30.62812,
      "address": "常青一路与新华路交叉口南200米"
    },
    {
      "id": 24,
      "name": "中共武汉市江岸区民营医师协会党支部",
      "longitude": 114.281567,
      "latitude": 30.624153,
      "address": "武汉市江汉区江大路与三眼桥路交叉路口往西约70米"
    },
    {
      "id": 25,
      "name": "中共武汉姑嫂树农贸市场有限公司党支部",
      "longitude": 114.264594,
      "latitude": 30.641163,
      "address": "姑嫂树路与机电路交叉口东南50米"
    },
    {
      "id": 26,
      "name": "大兴鞋市商会党支部",
      "longitude": 114.29455,
      "latitude": 30.574263,
      "address": "大兴路3号附近"
    },
    {
      "id": 27,
      "name": "武汉市邯郸商会-党支部",
      "longitude": 114.288214,
      "latitude": 30.581517,
      "address": "民意一路21号"
    },
    {
      "id": 28,
      "name": "常宏里社区支部委员会",
      "longitude": 114.255472,
      "latitude": 30.61584,
      "address": "常宏里58"
    },
    {
      "id": 29,
      "name": "满春街肖家社区党支部",
      "longitude": 114.290602,
      "latitude": 30.579026,
      "address": "武汉市江汉区清芬一路与三民路交叉路口往西南约130米"
    },
    {
      "id": 30,
      "name": "中共武汉上饶商会支部委员会",
      "longitude": 114.272357,
      "latitude": 30.630262,
      "address": "姑嫂树路与常青一路交叉口西南150米"
    },
    {
      "id": 31,
      "name": "中国共产党武汉天仁中医门诊部支部委员会",
      "longitude": 114.269178,
      "latitude": 30.605142,
      "address": "青年路269号"
    },
    {
      "id": 32,
      "name": "中共武汉百姓医院总支委员会",
      "longitude": 114.25455,
      "latitude": 30.620816,
      "address": "常青路贺家墩141号"
    },
    {
      "id": 33,
      "name": "中共武汉市江汉区万松街青年社区总支委员会",
      "longitude": 114.267272,
      "latitude": 30.59347,
      "address": "武汉市江汉区航空小路与万松园横路交叉路口往南约90米"
    },
    {
      "id": 34,
      "name": "中共武汉楚天医院支部委员会",
      "longitude": 114.272475,
      "latitude": 30.599337,
      "address": "青年路266号"
    },
    {
      "id": 35,
      "name": "中共武汉市江汉区委花楼水塔街工委花楼社区总支委员会",
      "longitude": 114.300063,
      "latitude": 30.583371,
      "address": "花楼街办事处中共江汉区委花楼水塔街"
    },
    {
      "id": 36,
      "name": "中国共产党江汉区新华街循礼社区总支委员会",
      "longitude": 114.286965,
      "latitude": 30.59153,
      "address": "武汉市江汉区单洞路与解放大道交叉路口往北约160米"
    },
    {
      "id": 37,
      "name": "中共同济医学院社区支部委员会",
      "longitude": 114.265868,
      "latitude": 30.590836,
      "address": "湖北省武汉市江汉区宝丰二路130附2附近"
    },
    {
      "id": 38,
      "name": "中共大龙社区总支部委员会",
      "longitude": 114.298025,
      "latitude": 30.578727,
      "address": "港边巷29"
    },
    {
      "id": 39,
      "name": "中国共产党武汉市海山金谷物业服务有限公司支部委员会",
      "longitude": 114.286699,
      "latitude": 30.580825,
      "address": "武汉市江汉区民主二街与友谊路交叉路口往西南约80米"
    },
    {
      "id": 40,
      "name": "中共武汉市江汉区万松街王家墩社区总支部委员会",
      "longitude": 114.261144,
      "latitude": 30.594094,
      "address": "万松街办事处建设大道533号"
    },
    {
      "id": 41,
      "name": "中国共产党武汉天安医院党支部",
      "longitude": 114.259094,
      "latitude": 30.585807,
      "address": "武汉市硚口区宝丰一路与宝丰二路交叉口西北100米"
    },
    {
      "id": 42,
      "name": "中西医结合武汉送子鸟不孕专科医院党支部委员会",
      "longitude": 114.197596,
      "latitude": 30.606549,
      "address": "湖北省武汉市硚口区解放大道35号"
    },
    {
      "id": 43,
      "name": "长丰街社区卫生服务中心党支部",
      "longitude": 114.22375,
      "latitude": 30.61176,
      "address": "湖北省武汉市硚口区古田四路199号附近"
    },
    {
      "id": 44,
      "name": "中共世纪国医堂医院支部委员会",
      "longitude": 114.238668,
      "latitude": 30.582971,
      "address": "解放大道270号世纪国医堂医院附近"
    },
    {
      "id": 45,
      "name": "武汉市硚口区宗关街社区卫生服务中心党支部",
      "longitude": 114.230015,
      "latitude": 30.589612,
      "address": "湖北省武汉市硚口区解放大道387号"
    },
    {
      "id": 46,
      "name": "中共武汉现代妇产医院党支部",
      "longitude": 114.267755,
      "latitude": 30.575521,
      "address": "中山大道89号"
    },
    {
      "id": 47,
      "name": "中共武汉市副食品商会友松党支部",
      "longitude": 114.271775,
      "latitude": 30.573073,
      "address": "汉中路83号附近"
    },
    {
      "id": 48,
      "name": "汉正街副食行业分会党支部",
      "longitude": 114.270302,
      "latitude": 30.571784,
      "address": "汉正街377附6号"
    },
    {
      "id": 49,
      "name": "中共硚口区宝丰街环卫所党支部",
      "longitude": 114.26858,
      "latitude": 30.583298,
      "address": "宝丰街21号"
    },
    {
      "id": 50,
      "name": "中共武汉硚安社区服务有限公司营北项目部党支部",
      "longitude": 114.253932,
      "latitude": 30.591286,
      "address": "武汉市硚口区建设大道与兴和路交叉路口东北侧"
    },
    {
      "id": 51,
      "name": "中共古田街工委万人社区党支部",
      "longitude": 114.204391,
      "latitude": 30.601912,
      "address": "解放大道44号附近"
    },
    {
      "id": 52,
      "name": "中共硚口区城市管理(执法)局执法大队党总支部委员会",
      "longitude": 114.270996,
      "latitude": 30.576674,
      "address": "武汉市硚口区荣华街与荣华一路交叉路口往西南约90米"
    },
    {
      "id": 53,
      "name": "中共武汉市硚口区长丰街紫润南社区总支部委员会",
      "longitude": 114.2171,
      "latitude": 30.625811,
      "address": "武汉市硚口区城华路"
    },
    {
      "id": 54,
      "name": "中共硚口区委六角亭街工作委员会南巷社区支部委员会",
      "longitude": 114.282734,
      "latitude": 30.58264,
      "address": "武汉市硚口区民意四路与民主街交叉路口往西约90米"
    },
    {
      "id": 55,
      "name": "中共韩家墩街工委支部委员会",
      "longitude": 114.217336,
      "latitude": 30.592704,
      "address": "古田四路3附10号"
    },
    {
      "id": 56,
      "name": "中国共产党武汉市硚口区长丰街天勤花园社区总支委员会",
      "longitude": 114.196902,
      "latitude": 30.610505,
      "address": "武汉市硚口区南泥湾大道61号"
    },
    {
      "id": 57,
      "name": "中共乔口区汉水硚口街仁寿社区总支部委员会",
      "longitude": 114.251104,
      "latitude": 30.581173,
      "address": "仁寿路与锅厂台路交叉口东北50米"
    },
    {
      "id": 58,
      "name": "中共双墩社区支部委员会",
      "longitude": 114.236393,
      "latitude": 30.595831,
      "address": "湖北省武汉市硚口区二环线与汉西路交叉口西50米"
    },
    {
      "id": 59,
      "name": "武汉利济医院党支部",
      "longitude": 114.278308,
      "latitude": 30.575818,
      "address": "武汉市硚口区中山大道硚口区红旗村小学东南侧约60米"
    },
    {
      "id": 60,
      "name": "中共武汉市硚口区长丰街园博南社区总支部委员会",
      "longitude": 114.222735,
      "latitude": 30.625613,
      "address": "武汉市硚口区雪莲路与紫华路交叉路口往北约150米"
    },
    {
      "id": 61,
      "name": "中共武汉市汉阳区龙阳街汤山社区党支部委员会",
      "longitude": 114.19026,
      "latitude": 30.553055,
      "address": "康达街附近"
    },
    {
      "id": 62,
      "name": "中共武汉市邮政局十里铺支局联合支部委员会",
      "longitude": 114.224271,
      "latitude": 30.565574,
      "address": "汉阳大道与赫山路交叉口西150米"
    },
    {
      "id": 63,
      "name": "汉阳公安分局万名警察进社区江堤社区工作组临时党支部",
      "longitude": 114.258536,
      "latitude": 30.540184,
      "address": "下马湖路与高龙路交叉口西南50米"
    },
    {
      "id": 64,
      "name": "中共武汉市汉阳区委四新街太子观澜社区总支部委员会",
      "longitude": 114.22792,
      "latitude": 30.531433,
      "address": "湖北省武汉市汉阳区四新北路与梅林西路交叉口东北150米"
    },
    {
      "id": 65,
      "name": "中共武汉市汉阳区委四新街澜菲溪岸社区总支部委员会",
      "longitude": 114.216587,
      "latitude": 30.516758,
      "address": "梅林西路与芳草六街交叉口西南200米"
    },
    {
      "id": 66,
      "name": "中国共产党武汉友好医院支部委员会",
      "longitude": 114.273128,
      "latitude": 30.54838,
      "address": "武汉市汉阳区鹦鹉大道197号"
    },
    {
      "id": 67,
      "name": "中共五合里社区总支委员会",
      "longitude": 114.245216,
      "latitude": 30.564928,
      "address": "湖北省武汉市汉阳区汉钢路4附近"
    },
    {
      "id": 68,
      "name": "中共武汉信一通用拉丝机械有限公司党支部委员会",
      "longitude": 114.181065,
      "latitude": 30.573224,
      "address": "武汉市汉阳区金色一路与平塘路交叉路口往南约90米"
    },
    {
      "id": 69,
      "name": "中共武汉宏波物业管理有限公司联合党支部",
      "longitude": 114.205779,
      "latitude": 30.538291,
      "address": "武汉市汉阳区芳草二街与芳草西路交叉路口往西北约130米"
    },
    {
      "id": 70,
      "name": "汉阳公安分局万家警察进社区江城明珠社区工作是临时党支部",
      "longitude": 114.227519,
      "latitude": 30.515304,
      "address": "武汉市汉阳区连通港西路与四新南路交叉路口往西南约90米"
    },
    {
      "id": 71,
      "name": "中共武汉市汉阳区江堤街江博社区总支部委员会",
      "longitude": 114.252797,
      "latitude": 30.534041,
      "address": "江堤中路13号附近"
    },
    {
      "id": 72,
      "name": "中共武汉市汉阳区江堤街向阳村社区总支部委员会",
      "longitude": 114.250407,
      "latitude": 30.52824,
      "address": "武汉市汉阳区江堤中路与江永堤路交叉路口往东北约180米"
    },
    {
      "id": 73,
      "name": "中国共产党卫民医院支部委员会",
      "longitude": 114.256101,
      "latitude": 30.556426,
      "address": "马沧湖路42号"
    },
    {
      "id": 74,
      "name": "中共武汉鹦鹉沛盛投资有限公司支部委员会",
      "longitude": 114.266544,
      "latitude": 30.532303,
      "address": "鹦鹉大道295号附近"
    },
    {
      "id": 75,
      "name": "中共武汉市汉阳区委四新地区墨南湖畔社区支部委员会",
      "longitude": 114.225733,
      "latitude": 30.53246,
      "address": "四新北路东50米"
    },
    {
      "id": 76,
      "name": "中国共产党湖北省正义法律服务所支部委员会",
      "longitude": 114.259441,
      "latitude": 30.542224,
      "address": "湖北省武汉市汉阳区江堤中路江腾苑B区附近"
    },
    {
      "id": 77,
      "name": "中共武汉市汉阳区永丰街四台社区支部委员会",
      "longitude": 114.155783,
      "latitude": 30.586496,
      "address": "四台四路与四台大道交叉口西北100米"
    },
    {
      "id": 78,
      "name": "中共归元社区总支委员会",
      "longitude": 114.266031,
      "latitude": 30.553542,
      "address": "湖北省武汉市汉阳区归元寺路16号"
    },
    {
      "id": 79,
      "name": "中共武汉市汉阳区翠微街冰糖社区总支委员会",
      "longitude": 114.263593,
      "latitude": 30.548867,
      "address": "龙江路7号附近"
    },
    {
      "id": 80,
      "name": "中共武汉市邮政局钟家村支局支部委员会",
      "longitude": 114.270802,
      "latitude": 30.55549,
      "address": "武汉市汉阳区汉阳大道与鹦鹉大道交叉路口往西约120米"
    },
    {
      "id": 81,
      "name": "东湖生态旅游风景区管委会东湖路社区党支部",
      "longitude": 114.374321,
      "latitude": 30.568767,
      "address": "黄鹂路76号"
    },
    {
      "id": 82,
      "name": "中共武汉市武昌区中南路街石牌岭社区党支部",
      "longitude": 114.347442,
      "latitude": 30.527285,
      "address": "湖北省武汉市武昌区石牌岭路148号"
    },
    {
      "id": 83,
      "name": "中共武汉市道能义工服务中心党支部",
      "longitude": 114.301495,
      "latitude": 30.551246,
      "address": "湖北省武汉市武昌区黄鹤楼道2号附近"
    },
    {
      "id": 84,
      "name": "解放桥社区碳厂角党支部",
      "longitude": 114.298377,
      "latitude": 30.53114,
      "address": "毛家巷与玻璃厂街交叉口东150米"
    },
    {
      "id": 85,
      "name": "中共武汉市武昌区积玉桥街融侨华府社区党支部委员会",
      "longitude": 114.324802,
      "latitude": 30.578308,
      "address": "武汉市武昌区和平大道与新河后街交叉路口往东北约120米"
    },
    {
      "id": 86,
      "name": "中共中南大首义社区党支部委员会",
      "longitude": 114.321409,
      "latitude": 30.544789,
      "address": "武珞路114号"
    },
    {
      "id": 87,
      "name": "中共武昌区阳光福利院党支部",
      "longitude": 114.35724,
      "latitude": 30.61651,
      "address": "杨园街115附近"
    },
    {
      "id": 88,
      "name": "中共武昌区社区绿化管理队党支部",
      "longitude": 114.337258,
      "latitude": 30.580524,
      "address": "徐家棚街办事处友谊大道喻家湖226号武汉市武昌区园林局绿化队附近"
    },
    {
      "id": 89,
      "name": "中共武汉市武昌区中南路街长春社区总支委员会",
      "longitude": 114.328011,
      "latitude": 30.544382,
      "address": "武珞路二巷3号"
    },
    {
      "id": 90,
      "name": "中国共产党武汉市东方医院支部委员会",
      "longitude": 114.307403,
      "latitude": 30.523302,
      "address": "武汉市武昌区白沙洲大道与三角塘侧路交叉路口往西南约270米"
    },
    {
      "id": 91,
      "name": "中共武汉市洪山广场党支部",
      "longitude": 114.344716,
      "latitude": 30.551376,
      "address": "武汉市武昌区八一路与洪山路交叉路口往西约60米"
    },
    {
      "id": 92,
      "name": "中共武汉市武昌区白沙洲街梅花苑社区总支部委员会",
      "longitude": 114.299497,
      "latitude": 30.531724,
      "address": "白沙洲街办事处玻璃厂横街附30号"
    },
    {
      "id": 93,
      "name": "中共武汉市武昌区中华路街西城壕社区总支委员会",
      "longitude": 114.310733,
      "latitude": 30.557152,
      "address": "火矩路44"
    },
    {
      "id": 94,
      "name": "中共武汉市武昌区白沙洲街长江紫都社区总支部委员会",
      "longitude": 114.295668,
      "latitude": 30.519558,
      "address": "白沙洲街办事处"
    },
    {
      "id": 95,
      "name": "中共武汉市武昌区黄鹤楼街彭刘杨路社区总支部委员会",
      "longitude": 114.303244,
      "latitude": 30.548826,
      "address": "大成路44号黄鹤楼街"
    },
    {
      "id": 96,
      "name": "中共武汉市武昌区粮道街昙华林社区总支部委员会",
      "longitude": 114.31454,
      "latitude": 30.558402,
      "address": "昙华林39号"
    },
    {
      "id": 97,
      "name": "中共百瑞景社区支部委员会",
      "longitude": 114.341509,
      "latitude": 30.526748,
      "address": "宝通寺路40号"
    },
    {
      "id": 98,
      "name": "中共中国邮政集团公司武昌区分公司总支部委员会",
      "longitude": 114.304207,
      "latitude": 30.545717,
      "address": "湖北省武汉市武昌区彭刘杨路与解放路交叉口西北50米"
    },
    {
      "id": 99,
      "name": "中共武汉市武昌区水果湖街武重社区总支部委员会",
      "longitude": 114.360329,
      "latitude": 30.565082,
      "address": "湖北省武汉市武昌区兴国路与兴武路交叉口西南100米"
    },
    {
      "id": 100,
      "name": "中共武汉市武昌区水果湖街小洪山社区支部委员会",
      "longitude": 114.361194,
      "latitude": 30.543897,
      "address": "天鹅路80号附近"
    },
    {
      "id": 101,
      "name": "白玉山街群力社区党支部委员会",
      "longitude": 114.495906,
      "latitude": 30.616517,
      "address": "武汉市青山区白玉东路与康平街交叉路口往西北约100米"
    },
    {
      "id": 102,
      "name": "中共康乐社区党支部委员会",
      "longitude": 114.492848,
      "latitude": 30.616227,
      "address": "武汉市青山区康乐路与康宁路交叉路口往北约110米"
    },
    {
      "id": 103,
      "name": "武钢建工集团建设公司工安工程处党支部委员会",
      "longitude": 114.433085,
      "latitude": 30.629958,
      "address": "湖北省武汉市青山区冶金大道104号"
    },
    {
      "id": 104,
      "name": "青山区红卫路街居民社区党支部",
      "longitude": 114.383361,
      "latitude": 30.627023,
      "address": "武汉市青山区建港南街与建设二路交叉路口往西约210米"
    },
    {
      "id": 105,
      "name": "中共武汉市交通运输有限公司总支委员会",
      "longitude": 114.440124,
      "latitude": 30.660425,
      "address": "武汉市青山区长青路与许家村路交叉路口往南约150米"
    },
    {
      "id": 106,
      "name": "中共武汉市青山区治金街名流社区总支部委员会",
      "longitude": 114.41144,
      "latitude": 30.634871,
      "address": "工业四路2附3号"
    },
    {
      "id": 107,
      "name": "中共武钢后勤集团公司幼教中心支部委员会",
      "longitude": 114.404205,
      "latitude": 30.645603,
      "address": "红钢三街19"
    },
    {
      "id": 108,
      "name": "中共武钢后勤集团公司绿化公司花木分公司支部委员会",
      "longitude": 114.510145,
      "latitude": 30.600789,
      "address": "青化路66号附近"
    },
    {
      "id": 109,
      "name": "石化社区党总支部委员会",
      "longitude": 114.439909,
      "latitude": 30.660381,
      "address": "武汉市青山区长青路与许家村路交叉路口往南约160米"
    },
    {
      "id": 110,
      "name": "中共武汉市青山区工人村街青宜居社区总支委员会",
      "longitude": 114.428028,
      "latitude": 30.649574,
      "address": "武汉市青山区和居路与宜居路交叉路口往南约140米"
    },
    {
      "id": 111,
      "name": "康寿社区党总支部委员会",
      "longitude": 114.486295,
      "latitude": 30.613778,
      "address": "武汉市青山区白玉路与康寿路交叉路口北侧"
    },
    {
      "id": 112,
      "name": "中共中国通号上海工程局集团武汉分公司党总支委员会",
      "longitude": 114.404247,
      "latitude": 30.63106,
      "address": "武汉市青山区工业二路与随州街交叉路口往东约140米"
    },
    {
      "id": 113,
      "name": "中共武汉市青山区钢都花园125社区总支委员会",
      "longitude": 114.369942,
      "latitude": 30.619036,
      "address": "武汉市青山区罗家港路与南干渠路交叉路口往东北约160米"
    },
    {
      "id": 114,
      "name": "中共武东街航舵社区总支部委员会",
      "longitude": 114.466609,
      "latitude": 30.596176,
      "address": "武汉市青山区武东中路"
    },
    {
      "id": 115,
      "name": "中共五街社区支部委员会",
      "longitude": 114.408468,
      "latitude": 30.649653,
      "address": "红钢二街24附6号"
    },
    {
      "id": 116,
      "name": "中共十九街社区支部委员会",
      "longitude": 114.408263,
      "latitude": 30.642134,
      "address": "沿港一巷10"
    },
    {
      "id": 117,
      "name": "中共武东街铸锻社区总支部委员会",
      "longitude": 114.464475,
      "latitude": 30.583451,
      "address": "武汉市青山区武东路与武东中路交叉路口往东南约180米"
    },
    {
      "id": 118,
      "name": "中共青山区红卫路街和平社区总支部委员会",
      "longitude": 114.38837,
      "latitude": 30.635914,
      "address": "武汉市青山区本溪街与建设四路交叉路口往南约120米"
    },
    {
      "id": 119,
      "name": "中共武汉市青山区红卫路街三弓路社区总支委员会",
      "longitude": 114.375289,
      "latitude": 30.633898,
      "address": "湖北省武汉市青山区建设一路1附近"
    },
    {
      "id": 120,
      "name": "中共北湖社区总支部委员会",
      "longitude": 114.51213,
      "latitude": 30.606799,
      "address": "武汉市青山区胜英路"
    },
    {
      "id": 121,
      "name": "中共武汉仁安眼耳鼻喉医院党支部",
      "longitude": 114.37449,
      "latitude": 30.513609,
      "address": "湖北省武汉市洪山区雄楚大道409附1"
    },
    {
      "id": 122,
      "name": "洪山区建设乡新集村党支部",
      "longitude": 114.487297,
      "latitude": 30.668028,
      "address": "武汉市洪山区焦沙路"
    },
    {
      "id": 123,
      "name": "中共光谷软件园配套服务企业联合支部委员会",
      "longitude": 114.411343,
      "latitude": 30.485236,
      "address": "南湖大道31号附近"
    },
    {
      "id": 124,
      "name": "中共武汉市洪山区和平街武丰社区总支部委员会",
      "longitude": 114.385311,
      "latitude": 30.608822,
      "address": "武汉市洪山区丰福路与三弓路交叉路口往南约220米"
    },
    {
      "id": 125,
      "name": "梨园社区党支部委员会",
      "longitude": 114.378103,
      "latitude": 30.586587,
      "address": "武汉市洪山区华电小路与铁机路交叉路口往南约70米"
    },
    {
      "id": 126,
      "name": "东风社区党支部",
      "longitude": 114.466732,
      "latitude": 30.552105,
      "address": "武汉市洪山区东彭路"
    },
    {
      "id": 127,
      "name": "中共青山区钢花村街景胜花园社区支部委员会",
      "longitude": 114.388479,
      "latitude": 30.614884,
      "address": "武汉市洪山区北洋桥西路与丰园路交叉路口往南约120米"
    },
    {
      "id": 128,
      "name": "中共武汉市九鸿园物业管理有限公司党支部",
      "longitude": 114.385503,
      "latitude": 30.596172,
      "address": "武汉市洪山区欢乐大道与罗家港路交叉路口往北约160米"
    },
    {
      "id": 129,
      "name": "中共洪山区委关山街工委龙安社区党支部",
      "longitude": 114.40552,
      "latitude": 30.507319,
      "address": "民族大道93号附近"
    },
    {
      "id": 130,
      "name": "中共洪山街北港党支部",
      "longitude": 114.346096,
      "latitude": 30.5064,
      "address": "文治街494"
    },
    {
      "id": 131,
      "name": "中共和平新华工业总厂党支部",
      "longitude": 114.435525,
      "latitude": 30.589692,
      "address": "武汉市洪山区落雁路与涂新路交叉路口南侧"
    },
    {
      "id": 132,
      "name": "中共武汉市洪山区洪山街保利心语西区社区支部委员会",
      "longitude": 114.325519,
      "latitude": 30.477522,
      "address": "武汉市洪山区三义北路"
    },
    {
      "id": 133,
      "name": "中共武汉市洪山区个私协会组织委员会中心党支部",
      "longitude": 114.407562,
      "latitude": 30.504722,
      "address": "武汉市洪山区金田西路与雄楚大道交叉路口往东北约150米"
    },
    {
      "id": 134,
      "name": "中共湖北省华夏艺术传播研究院党支部委员会",
      "longitude": 114.344425,
      "latitude": 30.510207,
      "address": "武汉市洪山区书城路与治维路交叉路口往北约90米"
    },
    {
      "id": 135,
      "name": "中共武汉市洪山区洪山街保利心语社区支部委员会",
      "longitude": 114.334739,
      "latitude": 30.473364,
      "address": "武汉市洪山区文昌南路与野芷湖南路交叉路口往东约90米"
    },
    {
      "id": 136,
      "name": "中共武汉市洪山区狮子山街狮南社区支部委员会",
      "longitude": 114.321148,
      "latitude": 30.498725,
      "address": "武汉市洪山区南李路与文祥街交叉路口往南约140米"
    },
    {
      "id": 137,
      "name": "中共卓刀泉社区支部委员会",
      "longitude": 114.375843,
      "latitude": 30.513778,
      "address": "名都西路与雄楚大道交叉口东150米"
    },
    {
      "id": 138,
      "name": "中共武汉三鹰生物技术有限公司支部委员会",
      "longitude": 114.478394,
      "latitude": 30.488424,
      "address": "高新大道666号生物创新园D3-3栋"
    },
    {
      "id": 139,
      "name": "中共武汉市洪山区洪山街马湖社区总支部委员会",
      "longitude": 114.325692,
      "latitude": 30.480341,
      "address": "野芷湖西路12号附近"
    },
    {
      "id": 140,
      "name": "中共武汉市洪山区关山街气发社区总支部委员会",
      "longitude": 114.418412,
      "latitude": 30.510495,
      "address": "武汉市洪山区关山大道与鲁阳西街交叉路口往西北约140米"
    },
    {
      "id": 141,
      "name": "中共红卫大队党支部",
      "longitude": 114.122798,
      "latitude": 30.736255,
      "address": "红卫大队附近"
    },
    {
      "id": 142,
      "name": "中共武汉泾河红色物业管理有限责任公司支部委员会",
      "longitude": 114.172339,
      "latitude": 30.683183,
      "address": "武汉市东西湖区塔西路与张柏路交叉路口往东南约150米"
    },
    {
      "id": 143,
      "name": "中共湖北华坤投资集团党支部委员会",
      "longitude": 114.143288,
      "latitude": 30.619106,
      "address": "革新大道574号"
    },
    {
      "id": 144,
      "name": "中共蒿口大队党支部",
      "longitude": 114.051501,
      "latitude": 30.733737,
      "address": "武汉市东西湖区五四北路与五四中路交叉路口往南约140米"
    },
    {
      "id": 145,
      "name": "武汉华星房地产有限公司-党支部",
      "longitude": 114.262139,
      "latitude": 30.652041,
      "address": "银杏街92号附近"
    },
    {
      "id": 146,
      "name": "中共湖北得力电气有限公司联合党支部",
      "longitude": 114.160638,
      "latitude": 30.607415,
      "address": "朝阳路108号"
    },
    {
      "id": 147,
      "name": "中共新沟镇街工委新沟大队党支部",
      "longitude": 113.947691,
      "latitude": 30.705807,
      "address": "武汉市东西湖区G348"
    },
    {
      "id": 148,
      "name": "信阳市浉河驻汉党支部",
      "longitude": 114.158216,
      "latitude": 30.621036,
      "address": "武汉市东西湖区市场北一路舵落口大市场"
    },
    {
      "id": 149,
      "name": "中共莲湖社区党支部",
      "longitude": 114.029639,
      "latitude": 30.778364,
      "address": "武汉市东西湖区陈东线与莲湖路交叉路口往东南约280米"
    },
    {
      "id": 150,
      "name": "中共莲港社区党支部",
      "longitude": 114.031543,
      "latitude": 30.783069,
      "address": "武汉市东西湖区东柏路与陈东线交叉路口往东约80米"
    },
    {
      "id": 151,
      "name": "精益制衣有限公司党支部委员会",
      "longitude": 114.27079,
      "latitude": 30.656846,
      "address": "将军四路1号"
    },
    {
      "id": 152,
      "name": "中共走马岭街青锋大队支部委员会",
      "longitude": 114.040909,
      "latitude": 30.625851,
      "address": "武汉市东西湖区高青路与惠安大道交叉路口往东约80米"
    },
    {
      "id": 153,
      "name": "东风社区党支部委员会",
      "longitude": 114.019975,
      "latitude": 30.777021,
      "address": "武汉市东西湖区陈东线与第六排村东路交叉路口往西南约130米"
    },
    {
      "id": 154,
      "name": "中共走马岭街六合大队支部委员会",
      "longitude": 114.024485,
      "latitude": 30.633265,
      "address": "武汉市东西湖区惠安大道与兴工十三路交叉路口往北约90米"
    },
    {
      "id": 155,
      "name": "中共走马岭集镇社区党支部",
      "longitude": 114.040314,
      "latitude": 30.652455,
      "address": "武汉市东西湖区京港线与兴工十二路交叉路口往西北约240米"
    },
    {
      "id": 156,
      "name": "武汉联捷化工物流有限公司党支部",
      "longitude": 114.148822,
      "latitude": 30.603897,
      "address": "武汉市东西湖区朝阳路"
    },
    {
      "id": 157,
      "name": "中共新沟镇街二大队支部委员会",
      "longitude": 113.97605,
      "latitude": 30.713894,
      "address": "武汉市东西湖区荷沙路"
    },
    {
      "id": 158,
      "name": "中共武汉仕全兴装饰涂料有限公司支部委员会",
      "longitude": 114.131641,
      "latitude": 30.61804,
      "address": "八方路8号"
    },
    {
      "id": 159,
      "name": "中共渔门大队支部委员会",
      "longitude": 114.121334,
      "latitude": 30.603523,
      "address": "武汉市东西湖区四环线与慈惠街交叉路口东南侧"
    },
    {
      "id": 160,
      "name": "中共佳信液压设备有限公司支部委员会",
      "longitude": 114.269586,
      "latitude": 30.655471,
      "address": "武汉市东西湖区将军三路与将军四路交叉路口西北侧"
    },
    {
      "id": 161,
      "name": "中共幸福小学党支部委员会",
      "longitude": 114.071208,
      "latitude": 30.305454,
      "address": "武汉市汉南区陡埠大道与建国路交叉路口往东北约100米"
    },
    {
      "id": 162,
      "name": "中共塘江村党支部",
      "longitude": 113.996757,
      "latitude": 30.328016,
      "address": "环山二路与环山四路交叉口西南150米"
    },
    {
      "id": 163,
      "name": "中共江上村党支部委员会",
      "longitude": 114.034635,
      "latitude": 30.295363,
      "address": "江上村383"
    },
    {
      "id": 164,
      "name": "中共振兴社区党支部委员会(武汉市汉南区邓南镇人民政府南)",
      "longitude": 113.990406,
      "latitude": 30.304955,
      "address": "武汉市汉南区罗家岭路与水塔路交叉路口往西约60米"
    },
    {
      "id": 165,
      "name": "中共大嘴小学党支部委员会",
      "longitude": 114.047391,
      "latitude": 30.247817,
      "address": "武汉市汉南区X029与风情路交叉路口往北约80米"
    },
    {
      "id": 166,
      "name": "中共黄家墩大队支部委员会",
      "longitude": 114.005064,
      "latitude": 30.347919,
      "address": "028县道北50米"
    },
    {
      "id": 167,
      "name": "中共武汉永鸿建设工程监理有限公司支部委员会",
      "longitude": 114.086906,
      "latitude": 30.317324,
      "address": "湖北省武汉市汉南区纱帽正街88号"
    },
    {
      "id": 168,
      "name": "中共硚口大队支部委员会",
      "longitude": 113.77426,
      "latitude": 30.233103,
      "address": "湖北省武汉市汉南区湘口街硚口大队"
    },
    {
      "id": 169,
      "name": "中共东城垸新型墙体有限公司支部委员会",
      "longitude": 113.960563,
      "latitude": 30.330338,
      "address": "004乡道西100米附近"
    },
    {
      "id": 170,
      "name": "中共邓南中心卫生院支部委员会",
      "longitude": 113.993128,
      "latitude": 30.306298,
      "address": "武汉市汉南区建镇路与水塔路交叉路口东侧"
    },
    {
      "id": 171,
      "name": "中共东城垸中心小学支部委员会",
      "longitude": 113.923142,
      "latitude": 30.351957,
      "address": "通城道41号"
    },
    {
      "id": 172,
      "name": "中共湘口街非公有制企业联合支部委员会",
      "longitude": 113.850817,
      "latitude": 30.273297,
      "address": "武汉市汉南区缘顺路"
    },
    {
      "id": 173,
      "name": "中共湘口大队支部委员会",
      "longitude": 113.863194,
      "latitude": 30.262526,
      "address": "武汉市汉南区康泰路与湘隆路交叉路口往西南约80米"
    },
    {
      "id": 174,
      "name": "中共东荆街工委乌金中小学联合支部委员会",
      "longitude": 114.059917,
      "latitude": 30.351565,
      "address": "湖北省武汉市汉南区军山镇014乡道东250米(近汉南区乌金山中小学)"
    },
    {
      "id": 175,
      "name": "中共东城垸水电综合支部委员会",
      "longitude": 113.924417,
      "latitude": 30.349074,
      "address": "武汉市汉南区东荆街15号"
    },
    {
      "id": 176,
      "name": "中共永强化纤有限公司支部委员会",
      "longitude": 114.095057,
      "latitude": 30.332799,
      "address": "汉南大道992号"
    },
    {
      "id": 177,
      "name": "中共东荆街工委乌金大队支部委员会",
      "longitude": 114.060321,
      "latitude": 30.351571,
      "address": "013乡道南200米"
    },
    {
      "id": 178,
      "name": "中共陡埠中学支部委员会",
      "longitude": 114.046799,
      "latitude": 30.303437,
      "address": "武汉市汉南区陡埠大道与纱帽大道交叉路口往东北约140米"
    },
    {
      "id": 179,
      "name": "中共捞子湖小学支部委员会",
      "longitude": 113.902994,
      "latitude": 30.283585,
      "address": "武汉市汉南区小学路"
    },
    {
      "id": 180,
      "name": "中共银莲湖小学支部委员会",
      "longitude": 113.78776,
      "latitude": 30.242033,
      "address": "武汉市汉南区银雁街与双一路交叉路口往西南约70米"
    },
    {
      "id": 181,
      "name": "练武村党支部委员会",
      "longitude": 113.942821,
      "latitude": 30.651669,
      "address": "张湾街练武村村委会"
    },
    {
      "id": 182,
      "name": "向集村党支部委员会",
      "longitude": 113.937836,
      "latitude": 30.44042,
      "address": "湖北省武汉市蔡甸区永安街道向世武汉市向集村委会"
    },
    {
      "id": 183,
      "name": "中共心连心药房连锁有限责任公司党支部",
      "longitude": 114.187944,
      "latitude": 30.516877,
      "address": "芳草南路71号"
    },
    {
      "id": 184,
      "name": "中共黄金村党支部",
      "longitude": 113.840829,
      "latitude": 30.463369,
      "address": "武汉市蔡甸区龚侏路"
    },
    {
      "id": 185,
      "name": "中共奓山街财政所支部委员会",
      "longitude": 114.026546,
      "latitude": 30.452731,
      "address": "武汉市蔡甸区车站南路与星光大道交叉路口往南约150米"
    },
    {
      "id": 186,
      "name": "中共张家淌村党支部委员会",
      "longitude": 114.009477,
      "latitude": 30.61329,
      "address": "湖北省武汉市蔡甸区蔡张"
    },
    {
      "id": 187,
      "name": "中共武汉经济民营科技工业园党支部",
      "longitude": 114.150388,
      "latitude": 30.483525,
      "address": "武汉市蔡甸区东风大道高架"
    },
    {
      "id": 188,
      "name": "中共武汉盛泰保安服务有限公司党支部",
      "longitude": 114.162715,
      "latitude": 30.492433,
      "address": "湖北省武汉市蔡甸区新都国际嘉园A座二单元601室"
    },
    {
      "id": 189,
      "name": "中国共产党武汉市蔡甸区永安街红城村支部委员会",
      "longitude": 113.928774,
      "latitude": 30.4161,
      "address": "湖北省武汉市蔡甸区洪城向世永安街红城村村民委员会"
    },
    {
      "id": 190,
      "name": "武汉经济开发区汉南区民营医疗机构党支部",
      "longitude": 114.166212,
      "latitude": 30.510843,
      "address": "武汉市蔡甸区博学路"
    },
    {
      "id": 191,
      "name": "中共石港村党支部委员会",
      "longitude": 113.882762,
      "latitude": 30.505911,
      "address": "武汉市蔡甸区龚侏路"
    },
    {
      "id": 192,
      "name": "中共老湾村党支部委员会",
      "longitude": 113.9204,
      "latitude": 30.47538,
      "address": "湖北省武汉市蔡甸区永安街老湾村村民委员会"
    },
    {
      "id": 193,
      "name": "余门村支部委员会",
      "longitude": 113.83755,
      "latitude": 30.485879,
      "address": "武汉市蔡甸区龚侏路"
    },
    {
      "id": 194,
      "name": "蔡甸区永安街火焰村支部委员会",
      "longitude": 113.916914,
      "latitude": 30.498756,
      "address": "武汉市蔡甸区松茅线"
    },
    {
      "id": 195,
      "name": "中共蔡甸区河道堤防工程洪北管理分段党支委",
      "longitude": 113.861436,
      "latitude": 30.359994,
      "address": "侏洪路与千洪路交叉口西北50米"
    },
    {
      "id": 196,
      "name": "中共张湾街国土资源管理所支部委员会",
      "longitude": 113.989786,
      "latitude": 30.588889,
      "address": "武汉市蔡甸区柏林街与济民路交叉路口往东北约70米"
    },
    {
      "id": 197,
      "name": "中国共产党武汉市蔡甸区嵩阳林场总支委员会",
      "longitude": 113.912487,
      "latitude": 30.535106,
      "address": "武汉市蔡甸区龚侏路"
    },
    {
      "id": 198,
      "name": "武汉开发区全力南职工生活区党支部",
      "longitude": 114.105332,
      "latitude": 30.454669,
      "address": "武汉市蔡甸区全力南路全力南社区"
    },
    {
      "id": 199,
      "name": "中共沌口街老街支部委员会",
      "longitude": 114.182516,
      "latitude": 30.467071,
      "address": "湖北省武汉市蔡甸区沌口路万家湖社区(B区)东"
    },
    {
      "id": 200,
      "name": "中共武汉市蔡甸区委老干部工作局总支委员会",
      "longitude": 114.038971,
      "latitude": 30.588279,
      "address": "武汉市蔡甸区文昌街与影讯里交叉路口往东南约80米"
    },
    {
      "id": 201,
      "name": "中共站西社区支部委员会",
      "longitude": 114.314715,
      "latitude": 30.361055,
      "address": "八分山路399号"
    },
    {
      "id": 202,
      "name": "江夏区山坡乡向阳一村党支部",
      "longitude": 114.27966,
      "latitude": 30.070458,
      "address": "武汉市江夏区河垴街"
    },
    {
      "id": 203,
      "name": "江夏区纸坊街东方村党支部",
      "longitude": 114.356968,
      "latitude": 30.319704,
      "address": "湖北省武汉市江夏区Y084"
    },
    {
      "id": 204,
      "name": "中共栗庙社区党支部",
      "longitude": 114.445199,
      "latitude": 30.403322,
      "address": "武汉市江夏区经济开发区藏龙岛街道环岛路88-4号"
    },
    {
      "id": 205,
      "name": "中共梁山头社区支部委员会",
      "longitude": 114.452715,
      "latitude": 30.43301,
      "address": "武汉市江夏区康魅路与梁山头路交叉路口往北约50米"
    },
    {
      "id": 206,
      "name": "红旗村党支部",
      "longitude": 114.317972,
      "latitude": 30.411046,
      "address": "新华街与红花路交叉口东北100米"
    },
    {
      "id": 207,
      "name": "中共湖北华鑫(圣宝龙)集团有限公司党支部工作委员会",
      "longitude": 114.371845,
      "latitude": 30.408858,
      "address": "武汉市江夏区阳光大道与阳光一路交叉路口往南约210米"
    },
    {
      "id": 208,
      "name": "莲花桥党支部委员会",
      "longitude": 114.289892,
      "latitude": 30.233939,
      "address": "井西吴附近"
    },
    {
      "id": 209,
      "name": "宁港党支部",
      "longitude": 114.316212,
      "latitude": 30.321022,
      "address": "武汉市江夏区振兴路与中心街交叉路口往西约60米"
    },
    {
      "id": 210,
      "name": "跃进村党支部",
      "longitude": 114.330496,
      "latitude": 30.072145,
      "address": "湖北省武汉市江夏区跃进村委会"
    },
    {
      "id": 211,
      "name": "中共和尚桥村党支部委员会",
      "longitude": 114.381879,
      "latitude": 30.104208,
      "address": "武汉市江夏区山舒线"
    },
    {
      "id": 212,
      "name": "中共乌龙泉街福利院党支部",
      "longitude": 114.340738,
      "latitude": 30.232749,
      "address": "纸贺路东50米"
    },
    {
      "id": 213,
      "name": "中共武汉市江夏区新生村党支部",
      "longitude": 114.417896,
      "latitude": 30.107265,
      "address": "武汉市江夏区杨百街"
    },
    {
      "id": 214,
      "name": "中共湖泗社区党支部",
      "longitude": 114.471702,
      "latitude": 30.025033,
      "address": "武汉市江夏区柴家巷与湖泗老街交叉路口往北约150米"
    },
    {
      "id": 215,
      "name": "中共新华有限公司党支部委员会",
      "longitude": 114.337797,
      "latitude": 30.209198,
      "address": "武汉市江夏区南街"
    },
    {
      "id": 216,
      "name": "武汉江夏区城乡规划建设开发工程公司党支部",
      "longitude": 114.323528,
      "latitude": 30.366276,
      "address": "武汉市江夏区古驿道与兴苑街交叉路口往西约150米"
    },
    {
      "id": 217,
      "name": "胜利村党支部",
      "longitude": 114.319547,
      "latitude": 30.320299,
      "address": "武汉市江夏区中心街"
    },
    {
      "id": 218,
      "name": "劳四村党支部",
      "longitude": 114.259863,
      "latitude": 30.303701,
      "address": "湖北省武汉市江夏区劳四村村委会(京港澳高速公路东)"
    },
    {
      "id": 219,
      "name": "中共崇岭村党支部",
      "longitude": 114.264218,
      "latitude": 30.26115,
      "address": "郑店街道中共崇岭村党支部崇岭村村委会附近"
    },
    {
      "id": 220,
      "name": "中共群星村党支部",
      "longitude": 114.337915,
      "latitude": 30.088525,
      "address": "武汉市江夏区X011"
    },
    {
      "id": 221,
      "name": "木兰乡塔尔社区支部委员会",
      "longitude": 114.468569,
      "latitude": 31.107227,
      "address": "湖北省武汉市黄陂区兰秀大道46号"
    },
    {
      "id": 222,
      "name": "黄陂区滠口街南湖村支部委员会",
      "longitude": 114.346726,
      "latitude": 30.695434,
      "address": "武汉市黄陂区三环线"
    },
    {
      "id": 223,
      "name": "中共富兴社区党支部委员会",
      "longitude": 114.363319,
      "latitude": 30.718214,
      "address": "武汉市黄陂区富兴道与尚武道交叉路口往东约230米"
    },
    {
      "id": 224,
      "name": "前川街道双陈村党支部",
      "longitude": 114.385795,
      "latitude": 30.854522,
      "address": "武汉市黄陂区红枫街西50米"
    },
    {
      "id": 225,
      "name": "黄陂区前川街道五里村党支部",
      "longitude": 114.365303,
      "latitude": 30.890227,
      "address": "武汉市黄陂区双凤大道924-926号"
    },
    {
      "id": 226,
      "name": "滠口南湖还建小区项目党支部",
      "longitude": 114.357497,
      "latitude": 30.697476,
      "address": "武汉市黄陂区三环线"
    },
    {
      "id": 227,
      "name": "长轩岭镇石门社区党支部",
      "longitude": 114.306286,
      "latitude": 31.152695,
      "address": "武汉市黄陂区石门街与天才街交叉路口东侧"
    },
    {
      "id": 228,
      "name": "黄陂区前川街彭楼村党支部",
      "longitude": 114.322698,
      "latitude": 30.896107,
      "address": "彭楼村附近"
    },
    {
      "id": 229,
      "name": "中共大石桥村党支部委员会",
      "longitude": 114.435311,
      "latitude": 30.78768,
      "address": "大石桥村委会附近"
    },
    {
      "id": 230,
      "name": "黄陂区前川街刘寨村党支部",
      "longitude": 114.333127,
      "latitude": 30.896834,
      "address": "刘寨村村委会附近前川街"
    },
    {
      "id": 231,
      "name": "中共武汉市黄陂区横店街中华社区党支部委员会",
      "longitude": 114.300291,
      "latitude": 30.808234,
      "address": "湖北省武汉市黄陂区两岗街52号附近"
    },
    {
      "id": 232,
      "name": "中共朱铺村党支部委员会",
      "longitude": 114.180059,
      "latitude": 31.00667,
      "address": "武汉市黄陂区G316"
    },
    {
      "id": 233,
      "name": "中共徐洲村党支部委员会",
      "longitude": 114.284331,
      "latitude": 30.971874,
      "address": "罗汉寺街道武汉市徐洲村村民委员会徐洲村村委会附近"
    },
    {
      "id": 234,
      "name": "中共黄陂区蔡家榨镇韩集村党支部",
      "longitude": 114.533892,
      "latitude": 30.968907,
      "address": "武汉市黄陂区S234"
    },
    {
      "id": 235,
      "name": "中共振兴社区党支部委员会(中兴大街)",
      "longitude": 114.360447,
      "latitude": 30.716793,
      "address": "中兴大街附近"
    },
    {
      "id": 236,
      "name": "中共黄陂区三里镇财政所党支部",
      "longitude": 114.420768,
      "latitude": 30.793889,
      "address": "银湖大道34号"
    },
    {
      "id": 237,
      "name": "中共刘辛村党支部",
      "longitude": 114.245884,
      "latitude": 30.821708,
      "address": "109乡道西50米"
    },
    {
      "id": 238,
      "name": "中共隆兴村党支部委员会",
      "longitude": 114.332482,
      "latitude": 31.028116,
      "address": "祁家湾57号"
    },
    {
      "id": 239,
      "name": "甘铺村党支部委员会",
      "longitude": 114.594308,
      "latitude": 30.879832,
      "address": "武汉市黄陂区甘仓线与甘中路交叉路口往南约100米"
    },
    {
      "id": 240,
      "name": "中共龙巢社区党支部委员会",
      "longitude": 114.352168,
      "latitude": 30.720315,
      "address": "武汉市黄陂区汉口北大道与滠盛大道交叉路口往东约220米"
    },
    {
      "id": 241,
      "name": "中共阳逻街人力资源和社会保障服务中心支部委员会",
      "longitude": 114.564928,
      "latitude": 30.660675,
      "address": "关上路与老正街交叉口南100米"
    },
    {
      "id": 242,
      "name": "新洲区旧街街姚家河村党支部",
      "longitude": 114.965504,
      "latitude": 30.833233,
      "address": "旧街街姚家河村会姚家河村村委会附近"
    },
    {
      "id": 243,
      "name": "中共武汉市新洲区城市园林绿化管理所党支部",
      "longitude": 114.813865,
      "latitude": 30.842329,
      "address": "武汉市新洲区凤凰街与永安大道交叉路口西北侧"
    },
    {
      "id": 244,
      "name": "中共何畈村党支部",
      "longitude": 114.906972,
      "latitude": 30.917262,
      "address": "何畈村附近"
    },
    {
      "id": 245,
      "name": "中共武汉市新洲区徐古街刘二村支部委员会",
      "longitude": 114.979947,
      "latitude": 30.948241,
      "address": "武汉市新洲区新徐公路与鼓寨路交叉路口往南约80米"
    },
    {
      "id": 246,
      "name": "梨树园村党支部委员会",
      "longitude": 114.753059,
      "latitude": 30.653153,
      "address": "078乡道西50米"
    },
    {
      "id": 247,
      "name": "新洲区邾城街龙桥村党支部委员会",
      "longitude": 114.817345,
      "latitude": 30.87385,
      "address": "汪五房湾138"
    },
    {
      "id": 248,
      "name": "中共胜利湖村党支部",
      "longitude": 114.820051,
      "latitude": 30.74451,
      "address": "湖北省武汉市新洲区胜利湖村村委会"
    },
    {
      "id": 249,
      "name": "新洲区旧街街四合庄村支部委员会",
      "longitude": 114.878668,
      "latitude": 30.821585,
      "address": "武汉市新洲区四吴线与刘飞路交叉路口往西北约270米"
    },
    {
      "id": 250,
      "name": "武汉市新洲区汪集街曹寨村党支部",
      "longitude": 114.700121,
      "latitude": 30.829888,
      "address": "吴茂玕84"
    },
    {
      "id": 251,
      "name": "中共武汉市新洲区李集街张集村支部委员会",
      "longitude": 114.681087,
      "latitude": 30.860825,
      "address": "李集街张集村"
    },
    {
      "id": 252,
      "name": "中共湖北德裕置业有限公司党支部",
      "longitude": 114.818517,
      "latitude": 30.843611,
      "address": "文昌大道208号"
    },
    {
      "id": 253,
      "name": "中共柏林岗村党支部",
      "longitude": 114.834075,
      "latitude": 30.832632,
      "address": "武汉市新洲区沪聂线与商业街交叉路口往东约190米"
    },
    {
      "id": 254,
      "name": "中共阳逻街长山村党支部",
      "longitude": 114.581634,
      "latitude": 30.639516,
      "address": "窝子塆98"
    },
    {
      "id": 255,
      "name": "中共徐右镇周塆村党支部委员会",
      "longitude": 114.987068,
      "latitude": 30.931696,
      "address": "徐古镇周塆村村委会附近"
    },
    {
      "id": 256,
      "name": "中共辛冲镇国土资源规划管理所党支部",
      "longitude": 114.837807,
      "latitude": 30.83183,
      "address": "武汉市新洲区沪聂线与南安街交叉路口往西北约100米"
    },
    {
      "id": 257,
      "name": "中共李集街道党工委任河村党支部委员会",
      "longitude": 114.767898,
      "latitude": 30.851512,
      "address": "武汉市新洲区新李路"
    },
    {
      "id": 258,
      "name": "中共蔡漖村党支部委员会",
      "longitude": 114.604075,
      "latitude": 30.789059,
      "address": "湖北省武汉市新洲区"
    },
    {
      "id": 259,
      "name": "中共郑楼村党支部委员会",
      "longitude": 114.922102,
      "latitude": 30.99276,
      "address": "武汉市新洲区四吴线"
    },
    {
      "id": 260,
      "name": "新洲区邾城街邱桥村党支部委员会",
      "longitude": 114.77248,
      "latitude": 30.789556,
      "address": "湖北省武汉市新洲区邾城街道邾城街邱桥村党支部委员会"
    }
  ]
}