{
  "code": 0
  ,"msg": ""
  ,"count": 11
  ,"data": [
    {
      "id": "1",
      "name": "武汉大学",
      "longitude": "114.3651237619629",
      "latitude": "30.537816109479422",
      "address": "综合类、双一流、985、自主招生"
    },
    {
      "id": "2",
      "name": "华中科技大学",
      "longitude": "114.41786135561372",
      "latitude": "30.513121869068716",
      "address": "综合类、双一流、985、自主招生"
    },
    {
      "id": "3",
      "name": "中国地质大学（武汉）",
      "longitude": "114.39863495337296",
      "latitude": "30.521373863370137",
      "address": "理工类、双一流、211、自主招生"
    },
    {
      "id": "4",
      "name": "武汉理工大学",
      "longitude": "114.343925",
      "latitude": "30.513799242966737",
      "address": "理工类、双一流、211、自主招生"
    },
    {
      "id": "5",
      "name": "华中农业大学",
      "longitude": "114.36370797771256",
      "latitude": "30.481779897059855",
      "address": "农业类、双一流、211、自主招生"
    },
    {
      "id": "6",
      "name": "华中师范大学",
      "longitude": "114.36721577089848",
      "latitude": "30.524004396179922",
      "address": "师范类、双一流、211、自主招生"
    },
    {
      "id": "7",
      "name": "中南民族大学",
      "longitude": "114.39939549969077",
      "latitude": "30.491873572320124",
      "address": "综合类"
    },
    {
      "id": "8",
      "name": "湖北工业大学",
      "longitude": "114.31530997175149",
      "latitude": "30.48645994791441",
      "address": "理工类、卓越计划"
    },
    {
      "id": "9",
      "name": "江汉大学",
      "longitude": "114.16669736241947",
      "latitude": "30.520852990081064",
      "address": "综合类"
    },
    {
      "id": "10",
      "name": "武汉商学院",
      "longitude": "114.09378504824384",
      "latitude": "30.466056090983283",
      "address": "财经类"
    },
    {
      "id": "11",
      "name": "湖北开放职业学院",
      "longitude": "114.30709326471913",
      "latitude": "30.087955698235312",
      "address": "理工类"
    },
    {
      "id": "12",
      "name": "武汉工贸职业学院",
      "longitude": "114.42177327808038",
      "latitude": "30.535115467715215",
      "address": "理工类"
    },
    {
      "id": "13",
      "name": "武汉信息传播职业技术学院",
      "longitude": "114.38052003482345",
      "latitude": "30.40990698904417",
      "address": "理工类"
    },
    {
      "id": "14",
      "name": "湖北幼儿师范高等专业学校",
      "longitude": "114.30709326471913",
      "latitude": "30.087955698235312",
      "address": "师范类"
    },
    {
      "id": "15",
      "name": "湖北艺术职业学院",
      "longitude": "114.3782554066328",
      "latitude": "30.516729563090713",
      "address": "艺术类"
    },
    {
      "id": "16",
      "name": "武汉科技职业学院",
      "longitude": "114.36855748000818",
      "latitude": "30.60885851819259",
      "address": "理工类"
    },
    {
      "id": "17",
      "name": "武汉铁路桥梁职业学院",
      "longitude": "114.41823907471246",
      "latitude": "30.43498160362686",
      "address": "理工类"
    },
    {
      "id": "18",
      "name": "武汉外语外事职业学院",
      "longitude": "114.43351296329863",
      "latitude": "30.590250923980285",
      "address": "理工类"
    },
    {
      "id": "19",
      "name": "湖北轻工职业技术学院",
      "longitude": "114.30709326471913",
      "latitude": "30.087955698235312",
      "address": "理工类"
    },
    {
      "id": "20",
      "name": "湖北财税职业学院",
      "longitude": "114.30511824658802",
      "latitude": "30.520909610528665",
      "address": "财经类"
    },
    {
      "id": "21",
      "name": "湖北商贸职业学院",
      "longitude": "114.30709326471913",
      "latitude": "30.087955698235312",
      "address": "财经类"
    },
    {
      "id": "22",
      "name": "武汉设计工程学院",
      "longitude": "114.41603580078815",
      "latitude": "30.408480805113694",
      "address": "综合类"
    },
    {
      "id": "23",
      "name": "湖北工业大学工程技术学院",
      "longitude": "114.31398155756332",
      "latitude": "30.484023744921643",
      "address": "理工类"
    },
    {
      "id": "24",
      "name": "湖北科技职业学院",
      "longitude": "114.30709326471913",
      "latitude": "30.087955698235312\t",
      "address": "理工类"
    },
    {
      "id": "25",
      "name": "湖北生态工程职业技术学院",
      "longitude": "114.30709326471913",
      "latitude": "30.087955698235312",
      "address": "综合类"
    },
    {
      "id": "26",
      "name": "武汉海事职业学院",
      "longitude": "114.34260669145263",
      "latitude": "30.759753746588334",
      "address": "其他"
    },
    {
      "id": "27",
      "name": "湖北体育职业学院",
      "longitude": "114.30709326471913",
      "latitude": "30.087955698235312",
      "address": "体育类"
    },
    {
      "id": "28",
      "name": "湖北铁道运输职业学院",
      "longitude": "114.30709326471913",
      "latitude": "30.087955698235312",
      "address": "其他"
    },
    {
      "id": "29",
      "name": "湖北青年职业学院",
      "longitude": "114.30709326471913",
      "latitude": "30.087955698235312",
      "address": "政法类"
    },
    {
      "id": "30",
      "name": "武汉警官职业学院",
      "longitude": "114.3985248619905",
      "latitude": "30.441116893230976",
      "address": "政法类"
    },
    {
      "id": "31",
      "name": "湖北美术学院",
      "longitude": "114.38700522437495",
      "latitude": "30.283213906444924",
      "address": "艺术类"
    },
    {
      "id": "32",
      "name": "武汉民政职业学院",
      "longitude": "114.38500123185999",
      "latitude": "30.51544278374567",
      "address": "政法类"
    },
    {
      "id": "33",
      "name": "湖北城市建设职业技术学院",
      "longitude": "114.30709326471913",
      "latitude": "30.087955698235312",
      "address": "理工类"
    },
    {
      "id": "34",
      "name": "武汉体育学院体育科技学院",
      "longitude": "114.38502800136418",
      "latitude": "30.526660923337595",
      "address": "体育类"
    },
    {
      "id": "35",
      "name": "武汉城市职业学院",
      "longitude": "114.32879093237027",
      "latitude": "30.482328745564246",
      "address": "师范类"
    },
    {
      "id": "36",
      "name": "长江职业学院",
      "longitude": "114.40248216725361",
      "latitude": "30.502821494197363",
      "address": "理工类"
    },
    {
      "id": "37",
      "name": "湖北科技职业学院",
      "longitude": "114.30709326471913",
      "latitude": "30.087955698235312",
      "address": "理工类"
    },
    {
      "id": "38",
      "name": "武汉文理学院",
      "longitude": "114.16278605039847",
      "latitude": "30.5258901351586057",
      "address": "财经类"
    },
    {
      "id": "39",
      "name": "武汉工程职业技术学院",
      "longitude": "114.55348274212278",
      "latitude": "30.718568661572167",
      "address": "理工类"
    },
    {
      "id": "40",
      "name": "武汉船舶职业技术学院",
      "longitude": "114.24214685067747",
      "latitude": "30.57393860686774",
      "address": "理工类"
    },
    {
      "id": "41",
      "name": "湖北大学行知学院",
      "longitude": "114.34071297360704",
      "latitude": "30.582919857044",
      "address": "理工类"
    },
    {
      "id": "42",
      "name": "湖北交通职业技术学院",
      "longitude": "114.25304491346343",
      "latitude": "30.54461081818301",
      "address": "理工类"
    },
    {
      "id": "43",
      "name": "武汉传媒学院",
      "longitude": "114.42633325651013",
      "latitude": "30.444446119255733\t",
      "address": "艺术类"
    },
    {
      "id": "44",
      "name": "武汉软件工程职业技术学院",
      "longitude": "114.47866575077435",
      "latitude": "30.60342101707456",
      "address": "理工类"
    },
    {
      "id": "45",
      "name": "武汉设计工程学院",
      "longitude": "114.41603580078815",
      "latitude": "30.408480805113694",
      "address": "综合类"
    },
    {
      "id": "46",
      "name": "武汉纺织大学外经贸学院",
      "longitude": "114.37952165807967",
      "latitude": "30.584808637297733",
      "address": "理工类"
    },
    {
      "id": "47",
      "name": "湖北警官学院",
      "longitude": "114.21374198129921",
      "latitude": "30.607453539406105",
      "address": "政法类"
    },
    {
      "id": "48",
      "name": "武汉工程大学邮电与信息工程学院",
      "longitude": "114.39629499822307",
      "latitude": "30.510790898675744",
      "address": "理工类"
    },
    {
      "id": "49",
      "name": "武汉交通职业学院",
      "longitude": "114.27295899916136",
      "latitude": "30.43380894416694",
      "address": "理工类"
    },
    {
      "id": "50",
      "name": "湖北经济学院法商学院",
      "longitude": "114.44272104392866",
      "latitude": "30.42424996176518",
      "address": "财经类"
    },
    {
      "id": "51",
      "name": "武汉晴川学院",
      "longitude": "114.5456733231718",
      "latitude": "30.396583932537286",
      "address": "综合类"
    },
    {
      "id": "52",
      "name": "武汉华夏理工学院",
      "longitude": "114.4184850307611",
      "latitude": "30.472645942459913",
      "address": "理工类"
    },
    {
      "id": "53",
      "name": "汉口学院",
      "longitude": "114.32331288570931",
      "latitude": "30.42224490612944",
      "address": "综合类"
    },
    {
      "id": "54",
      "name": "武汉外语外事职业学院",
      "longitude": "114.43351296329863",
      "latitude": "30.590250923980285",
      "address": "理工类"
    },
    {
      "id": "55",
      "name": "武昌理工学院",
      "longitude": "114.32254851755089",
      "latitude": "30.559566983522483",
      "address": "综合类"
    },
    {
      "id": "56",
      "name": "武汉工程科技学院",
      "longitude": "114.3451600350342",
      "latitude": "30.35485127540315",
      "address": "理工类"
    },
    {
      "id": "57",
      "name": "武汉工商学院",
      "longitude": "114.28063403160807",
      "latitude": "30.46475657239903",
      "address": "综合类"
    },
    {
      "id": "58",
      "name": "武昌首义学院",
      "longitude": "114.31331106233067",
      "latitude": "30.493247955710917",
      "address": "理工类"
    },
    {
      "id": "59",
      "name": "武汉职业技术学院",
      "longitude": "114.47866575077435",
      "latitude": "30.60342101707456",
      "address": "理工类"
    },
    {
      "id": "60",
      "name": "湖北轻工职业技术学院",
      "longitude": "114.30709326471913",
      "latitude": "30.087955698235312",
      "address": "理工类"
    },
    {
      "id": "61",
      "name": "文华学院",
      "longitude": "114.44498746873033",
      "latitude": "30.499873132773704",
      "address": "理工类"
    },
    {
      "id": "62",
      "name": "湖北中医药大学",
      "longitude": "114.27696903495792",
      "latitude": "30.45378790372923",
      "address": "医药类"
    },
    {
      "id": "63",
      "name": "武汉轻工大学",
      "longitude": "114.24494300623837",
      "latitude": "30.642286912984563",
      "address": "理工类"
    },
    {
      "id": "64",
      "name": "湖北水利水电职业技术学院",
      "longitude": "114.4115350206915",
      "latitude": "30.376762944240525",
      "address": "理工类"
    },
    {
      "id": "65",
      "name": "湖北经济学院",
      "longitude": "114.44272104392866",
      "latitude": "30.42424996176518",
      "address": "财经类"
    },
    {
      "id": "66",
      "name": "湖北大学",
      "longitude": "114.34071297360704",
      "latitude": "30.58291985704",
      "address": "综合类"
    },
    {
      "id": "67",
      "name": "武汉工程大学",
      "longitude": "114.39704571213777",
      "latitude": "30.508164969853674",
      "address": "理工类、卓越计划"
    },
    {
      "id": "68",
      "name": "武汉光谷职业学院",
      "longitude": "114.38344842095543",
      "latitude": "30.504496452487146",
      "address": "综合类"
    },
    {
      "id": "69",
      "name": "武汉警官职业学院",
      "longitude": "114.3985248619905",
      "latitude": "30.441116893230976",
      "address": "政法类"
    },
    {
      "id": "70",
      "name": "中南财经政法大学",
      "longitude": "114.31932036687023",
      "latitude": "30.5390737985983",
      "address": "财经类、双一流、211、自主招生"
    },
    {
      "id": "71",
      "name": "武汉生物工程学院",
      "longitude": "114.53309399179338",
      "latitude": "30.718907838899906",
      "address": "理工类"
    },
    {
      "id": "72",
      "name": "湖北铁道运输职业学院",
      "longitude": "114.30709326471913",
      "latitude": "30.087955698235312",
      "address": "其他"
    },
    {
      "id": "73",
      "name": "武汉纺织大学",
      "longitude": "114.34914905048181",
      "latitude": "30.380599028743976\t",
      "address": "理工类、卓越计划"
    },
    {
      "id": "74",
      "name": "武汉科技大学",
      "longitude": "114.43398295674145",
      "latitude": "30.592143989865733",
      "address": "理工类、卓越计划、国防生"
    }
]
}